City_ID,City,Country,Date,Lat,Lng,Max Temp,Humidity,Cloudiness,Wind Speed,Weather Description
0,Meshcherino,RU,2021-01-07 21:30:43,55.1957,38.36,23.0,86,90,6.71,mist
1,Butaritari,KI,2021-01-07 21:30:43,3.0707,172.7902,81.52,83,9,20.04,light rain
2,Mataura,NZ,2021-01-07 21:30:43,-46.1927,168.8643,57.0,74,40,1.99,scattered clouds
3,Tuktoyaktuk,CA,2021-01-07 21:30:44,69.4541,-133.0374,-11.2,77,20,9.22,few clouds
4,Saint George,US,2021-01-07 21:30:44,37.1041,-113.5841,57.0,27,1,0.98,clear sky
5,Mehamn,NO,2021-01-07 21:30:44,71.0357,27.8492,26.6,63,0,12.66,clear sky
6,Beidao,CN,2021-01-07 21:30:44,34.5686,105.8933,17.46,65,10,0.49,clear sky
7,Olinda,BR,2021-01-07 21:30:44,-8.0089,-34.8553,80.6,69,40,9.22,scattered clouds
8,Arraial Do Cabo,BR,2021-01-07 21:30:45,-22.9661,-42.0278,84.2,74,0,9.22,clear sky
9,Chokurdakh,RU,2021-01-07 21:30:45,70.6333,147.9167,-12.3,90,97,7.23,overcast clouds
10,Rikitea,PF,2021-01-07 21:30:45,-23.1203,-134.9692,78.33,70,100,6.53,overcast clouds
11,Busselton,AU,2021-01-07 21:30:45,-33.65,115.3333,73.99,40,81,5.99,broken clouds
12,Egvekinot,RU,2021-01-07 21:30:46,66.3167,-179.1667,-17.63,91,88,1.61,overcast clouds
13,Bo Rai,TH,2021-01-07 21:30:46,12.5728,102.5371,74.89,71,4,7.67,clear sky
14,Thompson,CA,2021-01-07 21:29:28,55.7435,-97.8558,24.8,93,40,5.75,scattered clouds
15,Abu Samrah,SY,2021-01-07 21:30:46,35.3029,37.1841,51.89,59,7,4.76,clear sky
16,Kapaa,US,2021-01-07 21:30:47,22.0752,-159.319,78.8,73,20,9.22,few clouds
17,Andros Town,BS,2021-01-07 21:30:47,24.7,-77.7667,75.2,57,20,10.36,few clouds
18,Carnarvon,AU,2021-01-07 21:30:47,-24.8667,113.6333,82.4,69,40,11.5,scattered clouds
19,Narsaq,GL,2021-01-07 21:30:48,60.9167,-46.05,37.4,87,90,3.44,moderate rain
20,Pachino,IT,2021-01-07 21:30:48,36.7186,15.0907,60.8,67,75,6.91,broken clouds
21,Puerto Escondido,MX,2021-01-07 21:30:48,15.85,-97.0667,82.4,65,40,10.36,light rain
22,Turinskaya Sloboda,RU,2021-01-07 21:30:48,57.6232,64.3858,-0.89,89,100,10.13,overcast clouds
23,Georgetown,MY,2021-01-07 21:30:05,5.4112,100.3354,79.0,83,20,6.08,few clouds
24,Portobelo,PA,2021-01-07 21:30:49,9.55,-79.65,87.01,99,54,8.72,broken clouds
25,Antipovka,RU,2021-01-07 21:30:49,49.8299,45.3122,32.58,97,100,10.11,overcast clouds
26,Hithadhoo,MV,2021-01-07 21:30:49,-0.6,73.0833,82.45,80,100,19.3,heavy intensity rain
27,Castro,BR,2021-01-07 21:30:49,-24.7911,-50.0119,67.01,94,99,4.9,overcast clouds
28,Anadyr,RU,2021-01-07 21:30:50,64.75,177.4833,-22.0,76,0,11.18,clear sky
29,Saskylakh,RU,2021-01-07 21:30:50,71.9167,114.0833,-9.22,89,99,8.5,overcast clouds
30,San Quintin,MX,2021-01-07 21:30:50,30.4833,-115.95,67.12,49,1,8.97,clear sky
31,Atuona,PF,2021-01-07 21:30:50,-9.8,-139.0333,77.54,74,48,14.2,scattered clouds
32,Sao Joao Da Barra,BR,2021-01-07 21:29:59,-21.6403,-41.0511,80.6,74,40,9.22,scattered clouds
33,Bluff,NZ,2021-01-07 21:30:51,-46.6,168.3333,57.0,74,68,1.99,broken clouds
34,Qaanaaq,GL,2021-01-07 21:30:51,77.484,-69.3632,-17.34,70,1,7.74,clear sky
35,Ushuaia,AR,2021-01-07 21:30:51,-54.8,-68.3,60.8,39,40,11.5,scattered clouds
36,Hilo,US,2021-01-07 21:28:39,19.7297,-155.09,73.99,73,44,5.99,scattered clouds
37,Bahia Honda,CU,2021-01-07 21:30:52,22.9036,-83.1592,75.58,77,73,5.57,broken clouds
38,Bay Roberts,CA,2021-01-07 21:30:52,47.5999,-53.2648,45.0,100,90,27.63,light rain
39,Airai,TL,2021-01-07 21:30:52,-8.9266,125.4092,61.95,100,100,1.57,light rain
40,Vaini,TO,2021-01-07 21:30:52,-21.2,-175.2,80.6,89,75,9.22,light rain
41,Boende,CD,2021-01-07 21:30:53,-0.2167,20.8667,72.28,96,100,3.8,light rain
42,Luderitz,NA,2021-01-07 21:30:53,-26.6481,15.1594,70.48,54,26,18.25,scattered clouds
43,Asau,RO,2021-01-07 21:30:53,46.4333,26.4,41.0,65,20,10.36,few clouds
44,Atar,MR,2021-01-07 21:30:53,20.5169,-13.0499,70.63,34,0,1.59,clear sky
45,Petit Goave,HT,2021-01-07 21:30:53,18.4314,-72.8669,82.4,69,40,9.22,light rain
46,Takoradi,GH,2021-01-07 21:30:54,4.8845,-1.7554,79.57,86,94,8.14,overcast clouds
47,Albany,US,2021-01-07 21:29:18,42.6001,-73.9662,30.0,72,6,8.99,clear sky
48,Touba,CI,2021-01-07 21:30:54,8.2833,-7.6833,80.94,35,1,2.44,clear sky
49,Punta Arenas,CL,2021-01-07 21:30:55,-53.15,-70.9167,57.2,51,0,21.85,light rain
50,Inirida,CO,2021-01-07 21:30:55,3.8653,-67.9239,78.19,92,91,1.34,moderate rain
51,Dikson,RU,2021-01-07 21:30:55,73.5069,80.5464,15.35,97,87,13.0,overcast clouds
52,Maxixe,MZ,2021-01-07 21:30:55,-23.8597,35.3472,75.67,88,91,9.19,overcast clouds
53,Labuhan,ID,2021-01-07 21:30:56,-6.8844,112.2051,77.85,82,100,6.06,overcast clouds
54,Guerrero Negro,MX,2021-01-07 21:30:56,27.9769,-114.0611,73.17,23,0,9.6,clear sky
55,Port Elizabeth,ZA,2021-01-07 21:30:56,-33.918,25.5701,69.8,88,75,6.91,broken clouds
56,Quartucciu,IT,2021-01-07 21:30:56,39.2519,9.1794,48.0,100,85,4.61,overcast clouds
57,Yulara,AU,2021-01-07 21:30:56,-25.2406,130.9889,68.0,24,0,8.05,clear sky
58,San Patricio,US,2021-01-07 21:30:57,28.017,-97.5169,69.8,19,20,13.8,few clouds
59,Baykit,RU,2021-01-07 21:30:57,61.67,96.37,-14.55,80,6,4.85,clear sky
60,Kayes,ML,2021-01-07 21:30:57,14.0,-11.0,81.9,14,0,6.24,clear sky
61,Komsomolskiy,UZ,2021-01-07 21:30:58,40.4272,71.7189,23.0,68,90,11.5,mist
62,Husavik,IS,2021-01-07 21:30:58,66.0449,-17.3389,24.8,46,0,17.27,clear sky
63,Lebu,CL,2021-01-07 21:30:58,-37.6167,-73.65,58.1,68,3,22.37,clear sky
64,Coihaique,CL,2021-01-07 21:30:59,-45.5752,-72.0662,59.0,51,40,8.05,scattered clouds
65,Ishigaki,JP,2021-01-07 21:30:59,24.3448,124.1572,50.0,93,75,19.57,broken clouds
66,East London,ZA,2021-01-07 21:30:59,-33.0153,27.9116,70.84,80,0,17.92,clear sky
67,Lorengau,PG,2021-01-07 21:31:00,-2.0226,147.2712,83.52,74,81,4.74,light rain
68,Chaihe,CN,2021-01-07 21:31:00,44.7667,129.7,-26.25,83,87,5.59,overcast clouds
69,Pemba,MZ,2021-01-07 21:31:00,-12.974,40.5178,80.6,83,20,10.36,few clouds
70,Pisco,PE,2021-01-07 21:31:00,-13.7,-76.2167,77.0,69,0,25.32,light rain
71,Jaguaquara,BR,2021-01-07 21:31:01,-13.5306,-39.9708,72.16,74,2,10.09,clear sky
72,Perth,AU,2021-01-07 21:26:35,-31.9333,115.8333,81.0,21,0,8.05,clear sky
73,Ribeira Grande,PT,2021-01-07 21:31:01,38.5167,-28.7,55.4,71,20,14.97,light rain
74,Cherskiy,RU,2021-01-07 21:31:01,68.75,161.3,-14.91,89,98,1.34,overcast clouds
75,Panjab,AF,2021-01-07 21:31:01,34.388,67.0233,-2.45,85,11,6.91,few clouds
76,Tiksi,RU,2021-01-07 21:31:02,71.6872,128.8694,-14.73,89,100,18.68,overcast clouds
77,Havoysund,NO,2021-01-07 21:31:02,70.9963,24.6622,28.4,74,0,34.52,clear sky
78,Salalah,OM,2021-01-07 21:31:03,17.0151,54.0924,71.6,28,0,10.36,clear sky
79,Tazovskiy,RU,2021-01-07 21:31:03,67.4667,78.7,-7.76,88,71,19.64,broken clouds
80,New Norfolk,AU,2021-01-07 21:31:04,-42.7826,147.0587,62.01,80,9,1.01,clear sky
81,Khatanga,RU,2021-01-07 21:31:04,71.9667,102.5,0.66,93,100,15.03,light snow
82,Severo-Kurilsk,RU,2021-01-07 21:31:05,50.6789,156.125,18.86,82,38,5.66,scattered clouds
83,Ponta Delgada,PT,2021-01-07 21:31:05,37.7333,-25.6667,53.6,71,40,13.8,light rain
84,Saint-Philippe,RE,2021-01-07 21:31:05,-21.3585,55.7679,77.0,73,0,5.75,clear sky
85,Peterhead,GB,2021-01-07 21:31:05,57.5058,-1.7981,36.0,93,75,11.5,broken clouds
86,Ozinki,RU,2021-01-07 21:31:05,51.1786,49.6769,23.11,98,100,13.04,overcast clouds
87,Praia,CV,2021-01-07 21:31:06,14.9215,-23.5087,75.2,69,0,11.5,clear sky
88,Boa Vista,BR,2021-01-07 21:31:06,2.8197,-60.6733,87.8,55,75,10.36,moderate rain
89,Neepawa,CA,2021-01-07 21:31:06,50.2289,-99.4664,32.0,100,90,5.75,overcast clouds
90,Cape Town,ZA,2021-01-07 21:31:06,-33.9258,18.4232,69.01,73,20,17.27,few clouds
91,Bonga,ET,2021-01-07 21:31:07,7.2833,36.2333,61.45,81,3,1.52,clear sky
92,Talnakh,RU,2021-01-07 21:31:07,69.4865,88.3972,-9.98,89,100,13.29,light snow
93,Robore,BO,2021-01-07 21:31:07,-18.3333,-59.75,86.74,55,38,5.12,scattered clouds
94,Jamestown,US,2021-01-07 21:27:24,42.097,-79.2353,28.99,86,90,6.91,overcast clouds
95,Hermanus,ZA,2021-01-07 21:31:08,-34.4187,19.2345,68.0,75,55,11.01,broken clouds
96,Vagur,FO,2021-01-07 21:31:08,61.4732,-6.8119,32.97,87,87,20.65,overcast clouds
97,San Policarpo,PH,2021-01-07 21:31:08,12.1791,125.5072,80.24,83,87,8.59,moderate rain
98,Port Hedland,AU,2021-01-07 21:31:09,-20.3167,118.5667,82.4,83,75,1.16,broken clouds
99,Honiara,SB,2021-01-07 21:31:09,-9.4333,159.95,86.34,64,44,2.51,scattered clouds
100,Provideniya,RU,2021-01-07 21:31:09,64.3833,-173.3,-7.83,82,9,3.91,clear sky
101,Barrow,US,2021-01-07 21:30:52,71.2906,-156.7887,-11.2,77,20,8.05,few clouds
102,Clyde River,CA,2021-01-07 21:31:09,70.4692,-68.5914,-20.2,69,20,4.61,few clouds
103,Ponta Do Sol,PT,2021-01-07 21:31:10,32.6667,-17.1,55.4,88,75,17.27,moderate rain
104,Da Nang,VN,2021-01-07 21:31:10,16.0678,108.2208,68.0,94,75,2.3,light rain
105,Nioro,GM,2021-01-07 21:31:10,13.35,-15.75,73.74,46,0,8.61,clear sky
106,Bathsheba,BB,2021-01-07 21:31:10,13.2167,-59.5167,80.6,74,40,19.57,scattered clouds
107,Kloulklubed,PW,2021-01-07 21:31:11,7.0419,134.2556,75.2,100,90,12.1,overcast clouds
108,Merritt Island,US,2021-01-07 21:31:12,28.5392,-80.672,72.0,56,40,11.5,scattered clouds
109,Lavrentiya,RU,2021-01-07 21:31:12,65.5833,-171.0,-12.32,84,3,5.12,clear sky
110,Nyagan,RU,2021-01-07 21:31:12,62.1406,65.3936,-3.77,92,100,4.79,light snow
111,Katangli,RU,2021-01-07 21:31:12,51.7102,143.2326,-14.6,82,100,10.76,overcast clouds
112,Avarua,CK,2021-01-07 21:31:13,-21.2078,-159.775,84.2,70,40,13.8,light rain
113,Samarai,PG,2021-01-07 21:31:13,-10.6167,150.6667,85.14,74,97,8.81,heavy intensity rain
114,Mar Del Plata,AR,2021-01-07 21:31:13,-38.0023,-57.5575,73.4,68,75,11.5,broken clouds
115,Terme,TR,2021-01-07 21:31:13,41.2092,36.9739,44.6,81,0,4.61,clear sky
116,Bilma,NE,2021-01-07 21:31:13,18.6853,12.9164,73.67,19,0,5.37,clear sky
117,Bethel,US,2021-01-07 21:31:14,41.3712,-73.414,33.01,68,0,3.0,clear sky
118,Bonthe,SL,2021-01-07 21:31:14,7.5264,-12.505,79.39,84,100,8.32,overcast clouds
119,Talaya,RU,2021-01-07 21:31:14,61.3833,152.75,-25.46,82,25,0.36,scattered clouds
120,Bredasdorp,ZA,2021-01-07 21:29:03,-34.5322,20.0403,69.8,64,41,8.05,scattered clouds
121,Ukiah,US,2021-01-07 21:31:15,39.1502,-123.2078,54.0,66,1,3.4,clear sky
122,Olafsvik,IS,2021-01-07 21:31:15,64.8945,-23.7142,38.52,94,100,25.05,moderate rain
123,Upernavik,GL,2021-01-07 21:31:15,72.7868,-56.1549,-2.33,91,100,6.08,overcast clouds
124,Alice Springs,AU,2021-01-07 21:29:20,-23.7,133.8833,60.8,59,0,7.27,clear sky
125,Yuyao,CN,2021-01-07 21:31:16,30.05,121.1494,24.01,49,0,13.42,clear sky
126,Bela Vista,BR,2021-01-07 21:31:16,-22.1089,-56.5211,78.76,88,65,2.17,broken clouds
127,Chuy,UY,2021-01-07 21:31:16,-33.6971,-53.4616,72.57,74,40,10.56,scattered clouds
128,Victoria,HK,2021-01-07 21:31:16,22.2855,114.1577,46.99,75,100,1.01,overcast clouds
129,Lagoa,PT,2021-01-07 21:31:16,39.05,-27.9833,56.57,68,27,21.05,scattered clouds
130,Beringovskiy,RU,2021-01-07 21:31:17,63.05,179.3167,-16.65,86,14,5.82,few clouds
131,Cayenne,GF,2021-01-07 21:30:07,4.9333,-52.3333,75.2,100,75,9.22,heavy intensity rain
132,Mayo,US,2021-01-07 21:31:17,38.8876,-76.5119,45.0,49,1,6.91,clear sky
133,Puerto Ayora,EC,2021-01-07 21:31:17,-0.7393,-90.3518,84.2,54,0,18.41,clear sky
134,Cabo San Lucas,MX,2021-01-07 21:28:13,22.8909,-109.9124,81.0,44,20,13.8,few clouds
135,Coquimbo,CL,2021-01-07 21:30:06,-29.9533,-71.3436,64.4,68,20,12.66,few clouds
136,Vao,NC,2021-01-07 21:31:18,-22.6667,167.4833,79.72,85,94,19.77,overcast clouds
137,Ordynskoye,RU,2021-01-07 21:31:18,54.3656,81.8994,-7.08,89,100,1.59,overcast clouds
138,White Rock,CA,2021-01-07 21:30:06,49.0164,-122.8026,46.99,84,100,1.01,overcast clouds
139,Khilok,RU,2021-01-07 21:31:19,51.3674,110.4676,-4.54,87,100,11.63,light snow
140,Porbandar,IN,2021-01-07 21:31:19,21.6422,69.6093,62.8,55,0,13.71,clear sky
141,Ronneby,SE,2021-01-07 21:26:35,56.21,15.276,32.0,100,90,8.05,light snow
142,Alofi,NU,2021-01-07 21:31:19,-19.0595,-169.9187,84.2,79,75,8.05,moderate rain
143,Umm Lajj,SA,2021-01-07 21:30:31,25.0213,37.2685,74.95,55,0,8.93,clear sky
144,Chaplynka,UA,2021-01-07 21:31:20,46.3651,33.5403,43.92,79,100,13.47,overcast clouds
145,Tarakan,ID,2021-01-07 21:31:20,3.3,117.6333,75.2,100,90,11.5,overcast clouds
146,Santa Maria,BR,2021-01-07 21:31:20,-29.6842,-53.8069,89.6,37,40,11.5,scattered clouds
147,Megion,RU,2021-01-07 21:31:21,61.0296,76.1136,-13.0,77,0,6.71,clear sky
148,Kirakira,SB,2021-01-07 21:31:21,-10.4544,161.9205,86.38,64,100,3.2,light rain
149,Ayna,PE,2021-01-07 21:31:21,-12.65,-73.9167,59.59,81,99,0.98,overcast clouds
150,Peleduy,RU,2021-01-07 21:31:21,59.6289,112.7406,-2.51,89,100,13.91,light snow
151,Buraydah,SA,2021-01-07 21:31:21,26.326,43.975,53.6,100,75,3.44,light rain
152,Fairbanks,US,2021-01-07 21:30:02,64.8378,-147.7164,3.2,78,75,1.88,broken clouds
153,Vardo,NO,2021-01-07 21:31:22,70.3705,31.1107,15.8,86,20,14.97,few clouds
154,Celestun,MX,2021-01-07 21:31:22,20.8667,-90.4,76.1,79,100,10.65,overcast clouds
155,Campbell River,CA,2021-01-07 21:29:19,50.0163,-125.2446,45.0,93,75,11.5,mist
156,Sioux Lookout,CA,2021-01-07 21:31:23,50.1001,-91.917,26.6,80,20,10.36,few clouds
157,Kupang,ID,2021-01-07 21:31:23,-10.1667,123.5833,75.2,100,20,1.14,few clouds
158,Sao Filipe,CV,2021-01-07 21:31:23,14.8961,-24.4956,75.34,77,0,7.16,clear sky
159,Faanui,PF,2021-01-07 21:31:23,-16.4833,-151.75,80.96,68,62,5.82,light rain
160,Sault Sainte Marie,CA,2021-01-07 21:28:48,46.5168,-84.3333,32.0,51,1,6.91,clear sky
161,Flinders,AU,2021-01-07 21:31:24,-34.5833,150.8552,66.0,89,35,1.01,scattered clouds
162,Nakambala,ZM,2021-01-07 21:31:24,-15.8324,27.7799,68.68,91,96,3.85,overcast clouds
163,Hobart,AU,2021-01-07 21:31:10,-42.8794,147.3294,62.01,82,75,6.91,broken clouds
164,Iquique,CL,2021-01-07 21:30:00,-20.2208,-70.1431,73.4,64,0,18.41,clear sky
165,Agua Preta,BR,2021-01-07 21:31:25,-8.7075,-35.5306,75.99,81,44,7.23,scattered clouds
166,Toora-Khem,RU,2021-01-07 21:31:25,52.4675,96.11,-22.94,84,88,1.1,overcast clouds
167,Dali,CN,2021-01-07 21:29:25,25.7,100.1833,42.91,80,100,3.8,overcast clouds
168,Gewane,ET,2021-01-07 21:31:26,10.1664,40.6453,69.22,45,18,5.73,few clouds
169,Henties Bay,NA,2021-01-07 21:31:26,-22.116,14.2845,68.0,89,63,7.74,broken clouds
170,Tual,ID,2021-01-07 21:31:26,-5.6667,132.75,83.37,77,89,12.01,light rain
171,Nikolskoye,RU,2021-01-07 21:31:26,59.7035,30.7861,24.8,86,75,11.18,light snow
172,Porto Novo,BJ,2021-01-07 21:31:27,6.4965,2.6036,82.4,89,20,11.5,few clouds
173,Zhaotong,CN,2021-01-07 21:30:23,27.3167,103.7167,22.53,91,99,6.13,overcast clouds
174,Cockburn Town,TC,2021-01-07 21:31:27,21.4612,-71.1419,76.15,78,12,13.69,few clouds
175,Camabatela,AO,2021-01-07 21:31:28,-8.1881,15.375,59.47,96,74,0.85,broken clouds
176,Shimoda,JP,2021-01-07 21:31:28,34.6667,138.95,27.0,70,7,1.01,clear sky
177,Daitari,IN,2021-01-07 21:31:28,21.1,85.75,65.03,61,46,2.57,scattered clouds
178,Mananjary,MG,2021-01-07 21:31:28,-21.2167,48.3333,76.26,90,45,5.77,light rain
179,Coachella,US,2021-01-07 21:28:24,33.6803,-116.1739,73.4,17,1,4.61,clear sky
180,Tessalit,ML,2021-01-07 21:31:29,20.1986,1.0114,73.15,20,0,9.57,clear sky
181,Leningradskiy,RU,2021-01-07 21:31:29,69.3833,178.4167,-9.18,85,100,7.36,overcast clouds
182,Bambous Virieux,MU,2021-01-07 21:31:30,-20.3428,57.7575,77.0,73,40,8.05,scattered clouds
183,Makakilo City,US,2021-01-07 21:31:30,21.3469,-158.0858,82.4,51,40,8.05,scattered clouds
184,Solone,UA,2021-01-07 21:31:30,48.2081,34.8721,44.6,100,75,13.42,broken clouds
185,Lompoc,US,2021-01-07 21:31:30,34.6391,-120.4579,66.2,36,1,11.16,clear sky
186,Port Lincoln,AU,2021-01-07 21:31:30,-34.7333,135.8667,65.17,81,0,11.59,clear sky
187,Bukama,CD,2021-01-07 21:31:31,-9.2,25.85,69.91,96,100,5.93,moderate rain
188,Arrecife,ES,2021-01-07 21:31:01,28.963,-13.5477,69.8,83,40,11.5,scattered clouds
189,Brae,GB,2021-01-07 21:31:31,60.3964,-1.353,33.8,69,20,16.11,light snow
190,Yellowknife,CA,2021-01-07 21:31:31,62.456,-114.3525,1.0,85,75,2.3,broken clouds
191,Ostersund,SE,2021-01-07 21:31:32,63.1792,14.6357,17.6,93,90,1.14,light snow
192,Paharpur,PK,2021-01-07 21:31:32,32.1038,70.9724,49.69,57,0,0.98,clear sky
193,Wiang Sa,TH,2021-01-07 21:31:32,8.6359,99.3666,78.01,95,100,2.21,light rain
194,Antibes,FR,2021-01-07 21:31:32,43.5624,7.1278,41.0,65,75,6.91,broken clouds
195,Aklavik,CA,2021-01-07 21:31:33,68.2191,-135.0107,-13.0,84,40,8.05,scattered clouds
196,Namibe,AO,2021-01-07 21:31:33,-15.1961,12.1522,72.1,76,61,9.35,broken clouds
197,Along,IN,2021-01-07 21:31:33,28.1667,94.7667,52.57,78,11,1.79,few clouds
198,Victor Harbor,AU,2021-01-07 21:31:33,-35.5667,138.6167,68.0,98,0,7.43,clear sky
199,Komlo,HU,2021-01-07 21:31:34,46.1928,18.2649,34.57,89,100,5.3,overcast clouds
200,Walvis Bay,NA,2021-01-07 21:31:34,-22.9575,14.5053,68.0,88,45,6.91,scattered clouds
201,The Valley,AI,2021-01-07 21:31:34,18.217,-63.0578,80.6,73,40,5.75,scattered clouds
202,Geraldton,AU,2021-01-07 21:31:34,-28.7667,114.6,77.0,25,10,6.91,clear sky
203,Port Alfred,ZA,2021-01-07 21:31:35,-33.5906,26.891,66.99,91,0,5.01,clear sky
204,Canavieiras,BR,2021-01-07 21:31:35,-15.675,-38.9472,84.2,61,0,9.22,clear sky
205,Comodoro Rivadavia,AR,2021-01-07 21:30:01,-45.8667,-67.5,68.0,40,20,16.11,few clouds
206,Caravelas,BR,2021-01-07 21:31:35,-17.7125,-39.2481,76.91,80,31,8.39,scattered clouds
207,Tasiilaq,GL,2021-01-07 21:31:36,65.6145,-37.6368,23.0,80,75,13.8,broken clouds
208,Padang,ID,2021-01-07 21:31:36,-0.9492,100.3543,78.53,75,100,4.85,light rain
209,Vila Velha,BR,2021-01-07 21:31:36,-20.3297,-40.2925,84.99,74,0,19.57,clear sky
210,Pevek,RU,2021-01-07 21:31:36,69.7008,170.3133,-9.0,91,100,4.36,overcast clouds
211,Port Augusta,AU,2021-01-07 21:31:36,-32.5,137.7667,72.0,88,0,12.66,clear sky
212,Kruisfontein,ZA,2021-01-07 21:31:37,-34.0033,24.7314,71.01,86,12,10.11,few clouds
213,Mahebourg,MU,2021-01-07 21:31:37,-20.4081,57.7,77.0,73,40,8.05,scattered clouds
214,Ilulissat,GL,2021-01-07 21:31:37,69.2167,-51.1,12.2,92,75,4.61,light snow
215,Lata,PT,2021-01-07 21:31:37,40.1629,-8.3327,44.01,63,52,5.99,broken clouds
216,Toumodi,CI,2021-01-07 21:31:37,6.5613,-5.0158,77.0,88,40,5.17,scattered clouds
217,Korla,CN,2021-01-07 21:31:38,41.7597,86.1469,12.45,85,72,4.68,broken clouds
218,Mao,ES,2021-01-07 21:31:38,39.8885,4.2658,44.6,81,40,18.41,scattered clouds
219,Klaksvik,FO,2021-01-07 21:31:38,62.2266,-6.589,30.2,69,75,16.11,light snow
220,Dunedin,NZ,2021-01-07 21:31:32,-45.8742,170.5036,56.07,63,38,13.85,scattered clouds
221,Nanortalik,GL,2021-01-07 21:31:39,60.1432,-45.2371,37.53,93,100,8.81,light rain
222,Torbay,CA,2021-01-07 21:31:39,47.6666,-52.7314,43.0,100,90,27.63,light rain
223,Loudi,CN,2021-01-07 21:31:39,27.7344,111.9944,28.8,75,78,5.06,broken clouds
224,Lagos,NG,2021-01-07 21:29:23,6.5833,3.75,80.6,89,20,5.53,few clouds
225,Zachepylivka,UA,2021-01-07 21:31:40,49.1939,35.2394,45.95,88,100,18.05,light rain
226,Daru,PG,2021-01-07 21:31:40,-9.0763,143.2092,80.53,85,100,7.31,light rain
227,Pacific Grove,US,2021-01-07 21:31:40,36.6177,-121.9166,63.0,55,1,5.75,clear sky
228,Bengkulu,ID,2021-01-07 21:31:40,-3.8004,102.2655,74.98,84,96,4.5,moderate rain
229,Mali,GN,2021-01-07 21:31:40,12.079,-12.2982,87.8,23,0,2.13,clear sky
230,Timon,BR,2021-01-07 21:31:41,-5.0942,-42.8367,93.2,40,0,4.61,clear sky
231,San Ramon,US,2021-01-07 21:31:41,37.7799,-121.978,59.0,58,1,13.8,clear sky
232,Do Gonbadan,IR,2021-01-07 21:31:41,30.3586,50.7981,41.0,75,0,1.92,clear sky
233,Pokhara,NP,2021-01-07 21:31:41,28.2333,83.9833,58.78,34,0,4.74,clear sky
234,Jiuquan,CN,2021-01-07 21:31:42,39.7432,98.5174,-0.53,78,5,4.9,clear sky
235,Rocha,UY,2021-01-07 21:31:42,-34.4833,-54.3333,79.16,41,46,6.89,scattered clouds
236,Zeya,RU,2021-01-07 21:31:42,53.75,127.2667,-18.31,81,99,1.41,overcast clouds
237,Kodiak,US,2021-01-07 21:31:42,57.79,-152.4072,39.2,93,90,16.11,light rain
238,Tautira,PF,2021-01-07 21:31:42,-17.7333,-149.15,87.8,62,20,9.22,few clouds
239,Magistralnyy,RU,2021-01-07 21:31:43,56.1725,107.4458,-10.93,88,100,4.72,light snow
240,Taoudenni,ML,2021-01-07 21:31:43,22.6783,-3.9836,77.47,21,100,5.55,overcast clouds
241,Pangani,TZ,2021-01-07 21:31:43,-5.4333,38.9667,76.71,84,56,10.67,broken clouds
242,Nilai,MY,2021-01-07 21:31:43,2.8169,101.7956,78.8,78,20,5.75,few clouds
243,Hofn,IS,2021-01-07 21:31:44,64.2539,-15.2082,26.64,90,99,9.64,overcast clouds
244,Esperance,AU,2021-01-07 21:31:44,-33.8667,121.9,59.0,82,0,17.27,clear sky
245,Mujiayingzi,CN,2021-01-07 21:31:44,42.1167,118.7833,-18.81,76,1,8.28,clear sky
246,Constitucion,CL,2021-01-07 21:31:44,-35.3333,-72.4167,64.47,59,0,18.88,clear sky
247,Hit,IQ,2021-01-07 21:31:44,33.6416,42.8251,52.0,42,17,5.44,few clouds
248,Ahipara,NZ,2021-01-07 21:31:45,-35.1667,173.1667,64.26,93,100,5.3,overcast clouds
249,Ostrovnoy,RU,2021-01-07 21:31:45,68.0531,39.5131,11.19,94,5,10.13,clear sky
250,Launceston,AU,2021-01-07 21:30:55,-41.45,147.1667,62.01,77,90,10.36,overcast clouds
251,Srednekolymsk,RU,2021-01-07 21:31:45,67.45,153.6833,-20.72,85,69,2.48,broken clouds
252,Kapuskasing,CA,2021-01-07 21:31:46,49.4169,-82.4331,17.6,57,6,0.34,clear sky
253,Feltre,IT,2021-01-07 21:31:46,46.0235,11.907,28.0,95,64,4.92,broken clouds
254,Riyadh,SA,2021-01-07 21:27:53,24.6877,46.7219,59.0,88,75,6.8,broken clouds
255,Zhigansk,RU,2021-01-07 21:31:46,66.7697,123.3711,-33.07,83,100,13.27,overcast clouds
256,Gikongoro,RW,2021-01-07 21:31:47,-2.464,29.5739,57.87,88,0,4.76,clear sky
257,Eureka,US,2021-01-07 21:30:25,40.8021,-124.1637,55.99,72,95,1.99,overcast clouds
258,Mikhaylovka,RU,2021-01-07 21:31:47,50.06,43.2379,35.01,95,100,7.0,light snow
259,Piacabucu,BR,2021-01-07 21:31:47,-10.4056,-36.4344,78.71,80,4,13.78,clear sky
260,Yuci,CN,2021-01-07 21:31:48,37.6803,112.7319,10.4,28,0,11.18,clear sky
261,Ambilobe,MG,2021-01-07 21:31:48,-13.2,49.05,73.78,90,23,2.26,few clouds
262,College,US,2021-01-07 21:31:48,64.8569,-147.8028,3.2,78,75,3.44,broken clouds
263,Nuuk,GL,2021-01-07 21:31:48,64.1835,-51.7216,17.6,79,75,17.27,snow
264,Shihezi,CN,2021-01-07 21:31:49,44.3,86.0333,-9.56,86,93,0.29,overcast clouds
265,Sulangan,PH,2021-01-07 21:31:49,11.1373,123.7228,79.54,81,100,6.06,moderate rain
266,Barlinek,PL,2021-01-07 21:31:49,52.9946,15.2186,36.0,83,100,11.56,light snow
267,Opuwo,NA,2021-01-07 21:31:49,-18.0607,13.84,72.95,53,87,4.61,overcast clouds
268,Erenhot,CN,2021-01-07 21:31:49,43.6475,111.9767,-12.46,86,0,9.95,clear sky
269,Veraval,IN,2021-01-07 21:31:50,20.9,70.3667,66.74,46,0,15.41,clear sky
270,Buchanan,LR,2021-01-07 21:31:50,5.8808,-10.0467,78.8,94,40,6.55,scattered clouds
271,La Serena,CL,2021-01-07 21:31:50,-29.9078,-71.2542,64.4,68,20,12.66,few clouds
272,Antofagasta,CL,2021-01-07 21:31:50,-23.65,-70.4,69.8,73,20,14.97,few clouds
273,Bizhbulyak,RU,2021-01-07 21:31:51,53.6967,54.2642,7.18,95,99,13.96,overcast clouds
274,Arauca,CO,2021-01-07 21:31:51,7.0847,-70.7591,79.36,80,70,3.71,light rain
275,Murmashi,RU,2021-01-07 21:31:51,68.8154,32.8115,-0.4,85,20,4.09,few clouds
276,Kavieng,PG,2021-01-07 21:31:51,-2.5744,150.7967,83.25,77,95,12.68,moderate rain
277,La Libertad,EC,2021-01-07 21:31:52,-2.2333,-80.9,82.4,65,0,11.5,clear sky
278,Norman Wells,CA,2021-01-07 21:31:52,65.282,-126.8329,-5.8,71,20,4.61,few clouds
279,Champerico,GT,2021-01-07 21:31:52,14.3,-91.9167,86.0,62,75,6.91,broken clouds
280,Requena,ES,2021-01-07 21:31:52,39.4883,-1.1004,33.01,84,100,7.11,snow
281,Chimore,BO,2021-01-07 21:31:53,-16.9833,-65.1333,81.77,75,40,2.15,light rain
282,Sortland,NO,2021-01-07 21:31:53,68.6949,15.4162,28.99,66,87,4.0,overcast clouds
283,Kerema,PG,2021-01-07 21:31:53,-7.9631,145.7785,80.8,80,99,6.58,overcast clouds
284,Terra Nova,BR,2021-01-07 21:31:53,-12.3667,-40.6667,89.6,40,0,5.75,clear sky
285,Antalaha,MG,2021-01-07 21:31:54,-14.9003,50.2788,74.62,88,4,4.94,clear sky
286,Chapleau,CA,2021-01-07 21:31:54,47.8405,-83.4034,17.6,67,1,4.14,clear sky
287,Cuauhtemoc,MX,2021-01-07 21:30:46,28.4167,-106.8667,66.99,10,11,5.01,few clouds
288,Avera,US,2021-01-07 21:31:55,33.194,-82.5271,48.99,66,90,6.91,moderate rain
289,Imbituba,BR,2021-01-07 21:31:55,-28.24,-48.6703,77.0,83,0,3.44,clear sky
290,Haifa,IL,2021-01-07 21:31:55,32.8156,34.9892,62.96,45,100,9.91,overcast clouds
291,Kismayo,SO,2021-01-07 21:29:21,-0.3582,42.5454,77.13,81,21,16.71,few clouds
292,Mbandaka,CD,2021-01-07 21:31:56,0.0487,18.2603,72.45,94,100,7.36,overcast clouds
293,Quthing,LS,2021-01-07 21:31:56,-30.4,27.7003,66.11,53,14,2.06,few clouds
294,Fortuna,US,2021-01-07 21:31:56,40.5982,-124.1573,55.0,66,20,16.11,few clouds
295,Haines Junction,CA,2021-01-07 21:31:56,60.7522,-137.5108,18.18,93,100,1.52,overcast clouds
296,Corinto,GR,2021-01-07 21:31:57,37.9407,22.9573,53.01,65,48,2.73,scattered clouds
297,Mecca,SA,2021-01-07 21:31:57,21.4267,39.8261,74.82,67,0,5.59,clear sky
298,Hambantota,LK,2021-01-07 21:31:57,6.1241,81.1185,73.4,100,20,1.14,few clouds
299,Ketchikan,US,2021-01-07 21:31:58,55.3422,-131.6461,42.8,93,90,10.36,light rain
300,Oussouye,SN,2021-01-07 21:31:58,12.485,-16.5469,78.8,83,0,4.61,clear sky
301,Kulachi,PK,2021-01-07 21:31:58,31.9286,70.4592,49.73,46,0,5.32,clear sky
302,Rangkasbitung,ID,2021-01-07 21:31:58,-6.3591,106.2494,80.01,89,20,9.22,few clouds
303,Alyangula,AU,2021-01-07 21:31:58,-13.8483,136.4192,78.8,100,92,4.61,overcast clouds
304,Lokosovo,RU,2021-01-07 21:31:59,61.1333,74.8167,-19.19,83,50,6.2,scattered clouds
305,Iqaluit,CA,2021-01-07 21:29:19,63.7506,-68.5145,-18.0,69,1,2.3,clear sky
306,Sitka,US,2021-01-07 21:31:59,57.0531,-135.33,46.4,57,75,18.41,light rain
307,Gari,RU,2021-01-07 21:31:59,59.4307,62.3497,1.44,93,100,7.02,overcast clouds
308,Wakkanai,JP,2021-01-07 21:31:59,45.4094,141.6739,17.13,97,100,28.34,light snow
309,Zhuzhou,CN,2021-01-07 21:32:00,27.8333,113.15,30.2,51,0,11.18,clear sky
310,Camacha,PT,2021-01-07 21:32:00,33.0833,-16.3333,53.6,87,75,24.16,light rain
311,Zhangye,CN,2021-01-07 21:32:00,38.9342,100.4517,5.14,61,0,4.41,clear sky
312,Bealanana,MG,2021-01-07 21:32:01,-14.55,48.7333,64.47,92,7,1.25,clear sky
313,Male,MV,2021-01-07 21:29:02,4.1748,73.5089,80.6,89,75,3.44,moderate rain
314,Neiafu,TO,2021-01-07 21:32:01,-18.65,-173.9833,77.0,88,90,5.75,light rain
315,Moerai,PF,2021-01-07 21:32:01,-22.4333,-151.3333,78.3,78,70,13.98,broken clouds
316,Alamogordo,US,2021-01-07 21:32:02,32.8995,-105.9603,57.0,13,1,1.21,clear sky
317,Sumter,US,2021-01-07 21:32:02,28.7086,-82.0831,71.01,60,99,1.99,overcast clouds
318,Suntar,RU,2021-01-07 21:32:02,62.1444,117.6319,7.83,94,100,9.44,light snow
319,Fare,PF,2021-01-07 21:32:02,-16.7,-151.0167,80.44,73,69,10.27,moderate rain
320,Vila,PT,2021-01-07 21:32:03,42.0304,-8.1588,30.0,89,0,3.0,clear sky
321,Codrington,AU,2021-01-07 21:32:03,-38.2667,141.9667,62.64,73,0,9.62,clear sky
322,Menongue,AO,2021-01-07 21:32:03,-14.6585,17.691,65.37,90,92,4.14,light rain
323,Teya,RU,2021-01-07 21:32:03,60.3778,92.6267,-14.17,79,0,1.61,clear sky
324,Port Blair,IN,2021-01-07 21:32:04,11.6667,92.75,79.7,81,7,8.3,clear sky
325,Gao,ML,2021-01-07 21:32:04,16.6362,1.637,77.59,16,0,10.83,clear sky
326,Barcelos,PT,2021-01-07 21:32:04,41.5388,-8.6151,39.0,81,0,4.61,clear sky
327,Greymouth,NZ,2021-01-07 21:32:04,-42.4667,171.2,70.11,64,89,2.8,overcast clouds
328,Liverpool,GB,2021-01-07 21:28:00,53.4106,-2.9779,35.01,100,90,5.75,overcast clouds
329,Upington,ZA,2021-01-07 21:30:27,-28.4478,21.2561,82.4,44,2,2.3,clear sky
330,Auki,SB,2021-01-07 21:32:05,-8.7676,160.7034,81.61,79,80,4.94,heavy intensity rain
331,Port Macquarie,AU,2021-01-07 21:32:05,-31.4333,152.9167,69.01,70,88,1.99,overcast clouds
332,Basoko,CD,2021-01-07 21:32:06,1.2391,23.616,76.35,67,76,4.16,broken clouds
333,Saint-Joseph,RE,2021-01-07 21:32:06,-21.3667,55.6167,77.0,73,0,5.75,clear sky
334,Verkhovazhye,RU,2021-01-07 21:32:06,60.7472,42.0465,-2.0,92,100,3.02,overcast clouds
335,Pangnirtung,CA,2021-01-07 21:32:06,66.1451,-65.7125,-23.8,83,20,4.61,few clouds
336,Isparta,TR,2021-01-07 21:32:06,38.0,31.0,39.2,100,90,1.14,light rain
337,Salekhard,RU,2021-01-07 21:27:26,66.53,66.6019,-20.63,87,42,9.15,scattered clouds
338,Larsnes,NO,2021-01-07 21:32:07,62.2028,5.5773,37.0,71,100,3.0,overcast clouds
339,Den Helder,NL,2021-01-07 21:29:06,52.9599,4.7593,39.0,93,90,3.44,drizzle
340,Rafsanjan,IR,2021-01-07 21:32:07,30.4067,55.9939,31.86,78,0,3.33,clear sky
341,Ornes,NO,2021-01-07 21:32:08,66.8689,13.7078,24.8,54,0,19.57,clear sky
342,Grindavik,IS,2021-01-07 21:32:08,63.8424,-22.4338,26.6,93,90,20.71,light snow
343,Beachwood,US,2021-01-07 21:32:08,41.4645,-81.5087,33.8,86,90,8.05,overcast clouds
344,Watsa,CD,2021-01-07 21:32:08,3.0372,29.5355,69.15,52,95,1.81,overcast clouds
345,Kallaste,EE,2021-01-07 21:32:09,58.655,27.1592,26.6,86,90,8.05,overcast clouds
346,Cabras,IT,2021-01-07 21:32:09,39.93,8.5314,39.99,82,74,4.0,broken clouds
347,Kutum,SD,2021-01-07 21:32:09,14.2,24.6667,61.88,29,0,12.37,clear sky
348,Biltine,TD,2021-01-07 21:32:09,14.5333,20.9167,70.9,22,0,11.41,clear sky
349,Phulpur,IN,2021-01-07 21:32:10,25.55,82.1,60.44,82,0,4.27,clear sky
350,Bereda,ES,2021-01-07 21:32:10,43.2686,-7.5406,32.0,95,11,1.99,few clouds
351,Union,US,2021-01-07 21:32:10,40.6334,-74.2663,42.8,42,1,8.05,clear sky
352,Paamiut,GL,2021-01-07 21:32:10,61.994,-49.6678,26.8,95,100,17.85,overcast clouds
353,Eydhafushi,MV,2021-01-07 21:32:11,5.1033,73.0708,81.03,75,79,4.23,light rain
354,Itarema,BR,2021-01-07 21:32:11,-2.9248,-39.9167,80.67,76,12,15.14,few clouds
355,Kongoussi,BF,2021-01-07 21:32:11,13.3258,-1.5347,78.98,15,0,8.97,clear sky
356,Lasa,IT,2021-01-07 21:32:12,46.6166,10.7002,30.2,79,0,6.91,clear sky
357,Berbera,SO,2021-01-07 21:32:12,10.4396,45.0143,73.8,60,0,7.31,clear sky
358,Petropavlovsk-Kamchatskiy,RU,2021-01-07 21:32:12,53.0452,158.6483,-4.0,71,0,11.18,clear sky
359,Caraballeda,VE,2021-01-07 21:32:13,10.6112,-66.8522,77.0,100,90,3.44,light intensity drizzle
360,Lousa,PT,2021-01-07 21:32:13,40.1167,-8.2492,44.01,63,52,5.99,broken clouds
361,Kasongo-Lunda,CD,2021-01-07 21:32:13,-6.4667,16.8167,67.42,93,100,0.89,overcast clouds
362,Half Moon Bay,US,2021-01-07 21:32:13,37.4636,-122.4286,59.0,67,1,2.8,clear sky
363,Gilbues,BR,2021-01-07 21:32:14,-9.8317,-45.3439,80.87,37,0,1.81,clear sky
364,Amuntai,ID,2021-01-07 21:32:14,-2.4177,115.2494,71.87,97,100,1.21,overcast clouds
365,Tukrah,LY,2021-01-07 21:32:14,32.5341,20.5791,61.11,66,22,7.9,few clouds
366,Vikhorevka,RU,2021-01-07 21:32:14,56.1201,101.1636,-7.6,84,7,11.18,clear sky
367,Ellensburg,US,2021-01-07 21:32:14,46.9965,-120.5479,37.99,80,90,2.82,fog
368,Cidreira,BR,2021-01-07 21:32:15,-30.1811,-50.2056,76.8,86,100,8.05,overcast clouds
369,Los Llanos De Aridane,ES,2021-01-07 21:32:15,28.6585,-17.9182,68.0,64,40,10.36,scattered clouds
370,Pandan,PH,2021-01-07 21:32:15,14.0453,124.1694,78.37,86,98,20.0,heavy intensity rain
371,Graaff-Reinet,ZA,2021-01-07 21:32:15,-32.2522,24.5308,77.0,55,27,2.71,scattered clouds
372,Madang,PG,2021-01-07 21:32:16,-5.2246,145.7966,79.36,86,100,4.88,overcast clouds
373,Odessa,UA,2021-01-07 21:31:18,46.4775,30.7326,39.2,87,0,4.47,clear sky
374,Cabedelo,BR,2021-01-07 21:32:16,-6.9811,-34.8339,80.6,78,20,10.36,few clouds
375,San Lawrenz,MT,2021-01-07 21:32:16,36.0553,14.204,64.99,72,0,10.36,clear sky
376,Contamana,PE,2021-01-07 21:32:16,-7.3333,-75.0167,76.87,93,65,2.59,moderate rain
377,Gamba,GA,2021-01-07 21:32:17,-2.65,10.0,75.67,91,100,6.42,light rain
378,Uppsala,SE,2021-01-07 21:32:17,60.0,17.75,32.0,100,75,5.75,light snow
379,Oranjemund,NA,2021-01-07 21:32:17,-28.55,16.4333,61.92,89,3,10.76,clear sky
380,Gat,IL,2021-01-07 21:32:17,31.61,34.7642,64.0,46,99,3.0,overcast clouds
381,Sechura,PE,2021-01-07 21:32:18,-5.5569,-80.8222,79.43,55,50,17.85,scattered clouds
382,Roald,NO,2021-01-07 21:32:18,62.5833,6.1333,33.8,64,75,11.5,broken clouds
383,Svetlyy,RU,2021-01-07 21:29:20,54.675,20.1347,32.0,100,90,4.47,light snow
384,Aleksandrov Gay,RU,2021-01-07 21:32:19,50.147,48.5704,25.79,98,100,9.37,overcast clouds
385,Genhe,CN,2021-01-07 21:32:19,50.7833,121.5167,-29.4,82,17,2.64,light snow
386,Camana,PE,2021-01-07 21:32:19,-16.6228,-72.7111,73.71,69,63,6.42,broken clouds
387,Saint Anthony,US,2021-01-07 21:32:19,45.0205,-93.218,25.0,80,90,3.62,mist
388,Lazaro Cardenas,MX,2021-01-07 21:32:20,17.9583,-102.2,80.11,66,2,6.67,clear sky
389,Nova Olinda Do Norte,BR,2021-01-07 21:32:20,-3.8881,-59.0942,80.55,81,78,1.99,moderate rain
390,Toguchin,RU,2021-01-07 21:32:20,55.2353,84.3858,0.86,91,100,3.11,overcast clouds
391,Otjiwarongo,NA,2021-01-07 21:32:20,-20.4637,16.6477,68.58,80,100,11.54,light rain
392,Kristianstad,SE,2021-01-07 21:32:21,56.0313,14.1524,32.0,100,75,5.75,light snow
393,Kananga,CD,2021-01-07 21:31:10,-5.8958,22.4178,66.52,94,100,4.45,light rain
394,Omboue,GA,2021-01-07 21:32:21,-1.5746,9.2618,77.11,90,100,9.93,moderate rain
395,Kidal,ML,2021-01-07 21:32:21,18.4411,1.4078,76.53,16,0,10.38,clear sky
396,Santarem,BR,2021-01-07 21:32:21,-2.4431,-54.7083,87.8,70,75,9.22,light rain
397,Eyl,SO,2021-01-07 21:32:22,7.9803,49.8164,72.28,69,0,17.81,clear sky
398,Waitati,NZ,2021-01-07 21:32:22,-45.75,170.5667,57.56,57,16,10.04,few clouds
399,Havelock,US,2021-01-07 21:32:22,34.8791,-76.9013,46.99,57,1,4.61,clear sky
400,Tabou,CI,2021-01-07 21:32:22,4.423,-7.3528,78.58,86,44,5.03,scattered clouds
401,Safaga,EG,2021-01-07 21:32:23,26.7292,33.9365,68.0,34,0,10.36,clear sky
402,Bowen,AU,2021-01-07 21:32:23,-20.0167,148.2333,75.2,100,90,4.61,moderate rain
403,Algiers,DZ,2021-01-07 21:32:23,36.7525,3.042,51.8,93,75,2.3,broken clouds
404,Kaduna,NG,2021-01-07 21:32:23,10.5222,7.4383,75.72,18,100,7.09,overcast clouds
405,Whitehorse,CA,2021-01-07 21:28:24,60.7161,-135.0538,26.6,74,75,19.57,snow
406,Russkiy Aktash,RU,2021-01-07 21:32:24,55.0384,52.1214,14.0,79,90,20.13,snow
407,Verkh-Usugli,RU,2021-01-07 21:32:24,52.7,115.1667,-13.29,84,85,3.4,overcast clouds
408,Ayagoz,KZ,2021-01-07 21:32:24,47.9714,80.4392,-3.41,79,99,2.15,light snow
409,Port Hardy,CA,2021-01-07 21:32:24,50.6996,-127.4199,46.4,81,75,23.02,broken clouds
410,Yenagoa,NG,2021-01-07 21:32:25,4.9247,6.2642,77.22,90,51,6.11,broken clouds
411,Hobyo,SO,2021-01-07 21:32:25,5.3505,48.5268,74.95,68,0,19.86,clear sky
412,Batsfjord,NO,2021-01-07 21:32:25,70.6345,29.7185,19.4,85,0,25.32,snow
413,Kushiro,JP,2021-01-07 21:32:25,42.975,144.3747,26.24,93,100,17.38,snow
414,Koindu,GN,2021-01-07 21:32:26,8.4386,-10.3253,73.0,68,91,3.06,overcast clouds
415,Orlik,RU,2021-01-07 21:32:26,52.5178,99.825,-16.96,80,11,2.3,few clouds
416,Blyth,GB,2021-01-07 21:32:26,55.1271,-1.5086,36.0,93,40,8.05,light snow
417,Huarmey,PE,2021-01-07 21:32:26,-10.0681,-78.1522,74.61,69,45,9.51,scattered clouds
418,Shaikhpura,IN,2021-01-07 21:32:26,25.15,85.85,62.24,74,0,3.78,clear sky
419,Altay,CN,2021-01-07 21:32:27,47.8667,88.1167,3.94,54,63,3.04,broken clouds
420,Meadow Lake,US,2021-01-07 21:30:06,34.8014,-106.5436,54.0,17,20,1.97,few clouds
421,Remontnoye,RU,2021-01-07 21:32:27,46.5614,43.6501,33.8,100,100,20.13,light snow
422,Aranda De Duero,ES,2021-01-07 21:32:27,41.6704,-3.6892,26.51,92,9,4.83,clear sky
423,Luanda,AO,2021-01-07 21:31:07,-8.8368,13.2343,78.8,78,75,6.91,broken clouds
424,Sobolevo,RU,2021-01-07 21:32:28,54.4299,31.8996,30.83,98,99,12.19,light snow
425,Yar-Sale,RU,2021-01-07 21:32:28,66.8333,70.8333,-12.41,88,84,18.03,broken clouds
426,Soe,ID,2021-01-07 21:32:28,-9.8607,124.284,68.34,100,98,1.41,overcast clouds
427,Koulikoro,ML,2021-01-07 21:32:28,14.0,-7.75,75.65,18,0,6.53,clear sky
428,Kobelyaky,UA,2021-01-07 21:32:29,49.1489,34.1965,42.57,75,100,20.38,overcast clouds
429,Slave Lake,CA,2021-01-07 21:32:29,55.2834,-114.769,32.0,55,1,5.75,clear sky
430,Las Varas,MX,2021-01-07 21:32:29,21.1667,-105.1667,77.0,53,90,6.13,overcast clouds
431,Changji,CN,2021-01-07 21:32:29,44.0167,87.3167,-7.6,84,94,2.24,mist
432,Freeport,US,2021-01-07 21:31:24,40.6576,-73.5832,42.01,45,1,13.8,clear sky
433,Borger,NL,2021-01-07 21:27:46,52.9233,6.7931,36.0,97,100,4.54,overcast clouds
434,Berlevag,NO,2021-01-07 21:32:30,70.8578,29.0864,19.4,68,0,19.57,clear sky
435,Chapais,CA,2021-01-07 21:32:30,49.7834,-74.8492,12.2,92,90,10.36,light snow
436,Kansk,RU,2021-01-07 21:32:30,56.2017,95.7175,-14.91,80,0,3.47,clear sky
437,Kijang,KR,2021-01-07 21:32:30,35.2442,129.2139,10.4,40,0,4.61,clear sky
438,Sao Gabriel Da Cachoeira,BR,2021-01-07 21:32:31,-0.1303,-67.0892,75.79,96,100,0.87,overcast clouds
439,Kuytun,RU,2021-01-07 21:32:31,54.3419,101.5036,-6.18,87,0,7.99,clear sky
440,Mount Gambier,AU,2021-01-07 21:32:31,-37.8333,140.7667,59.0,88,40,10.36,scattered clouds
441,Lakes Entrance,AU,2021-01-07 21:32:32,-37.8811,147.981,66.0,75,28,4.85,scattered clouds
442,Hasanabad,IR,2021-01-07 21:32:32,36.5465,61.0543,28.74,86,0,6.22,clear sky
443,Ilo,PE,2021-01-07 21:32:32,-17.6394,-71.3375,71.35,74,78,4.12,broken clouds
444,Isangel,VU,2021-01-07 21:32:32,-19.55,169.2667,84.2,84,75,11.97,broken clouds
445,Longyearbyen,SJ,2021-01-07 21:32:32,78.2186,15.6401,26.6,80,75,29.93,snow
446,Chontalpa,MX,2021-01-07 21:32:33,17.7,-93.5167,74.66,89,100,10.89,moderate rain
447,Werder,DE,2021-01-07 21:30:49,52.3787,12.934,35.01,91,94,1.01,overcast clouds
448,Morant Bay,JM,2021-01-07 21:32:33,17.8815,-76.4093,84.2,70,20,8.05,few clouds
449,Evensk,RU,2021-01-07 21:32:33,61.95,159.2333,-12.03,78,10,1.43,clear sky
450,Colquiri,BO,2021-01-07 21:32:33,-17.4167,-67.1333,40.57,83,65,10.07,broken clouds
451,Santa Cruz,BO,2021-01-07 21:29:08,-17.8,-63.1667,82.24,58,2,14.18,clear sky
452,Dicabisagan,PH,2021-01-07 21:32:34,17.0818,122.4157,73.83,85,60,8.95,broken clouds
453,Talcahuano,CL,2021-01-07 21:32:34,-36.7167,-73.1167,71.6,49,0,19.57,clear sky
454,Povenets,RU,2021-01-07 21:32:34,62.8487,34.8262,6.84,94,94,5.32,snow
455,Oxapampa,PE,2021-01-07 21:32:35,-10.5775,-75.4017,63.55,82,82,2.21,light rain
456,Pajapan,MX,2021-01-07 21:32:35,18.25,-94.7,75.2,73,75,36.82,light rain
457,Kamenica,DE,2021-01-07 21:32:35,50.8333,12.9167,32.0,86,44,1.01,scattered clouds
458,Maniago,IT,2021-01-07 21:32:35,46.1706,12.7078,35.01,94,79,5.99,broken clouds
459,Broome,US,2021-01-07 21:32:35,42.2506,-75.833,28.0,80,90,10.36,overcast clouds
460,Lahij,YE,2021-01-07 21:32:36,13.1667,44.5833,67.48,75,31,6.51,scattered clouds
461,Amahai,ID,2021-01-07 21:32:36,-3.3333,128.9167,82.0,91,100,3.91,overcast clouds
462,Talas,TR,2021-01-07 21:32:36,38.6908,35.5538,30.2,86,100,3.4,overcast clouds
463,Altea,ES,2021-01-07 21:32:36,38.5989,-0.0514,45.0,99,100,3.0,overcast clouds
464,Ionia,US,2021-01-07 21:32:36,42.9873,-85.0711,34.0,69,40,10.36,scattered clouds
465,Inhambane,MZ,2021-01-07 21:32:37,-23.865,35.3833,76.5,87,90,10.58,overcast clouds
466,Miri,MY,2021-01-07 21:29:38,4.4148,114.0089,75.2,100,40,5.75,scattered clouds
467,Tacuati,PY,2021-01-07 21:32:37,-23.45,-56.5833,75.11,93,95,1.1,overcast clouds
468,Ha Tinh,VN,2021-01-07 21:32:37,18.3333,105.9,56.46,91,100,12.26,overcast clouds
469,Maniitsoq,GL,2021-01-07 21:32:38,65.4167,-52.9,7.77,85,0,14.61,clear sky
470,Kununurra,AU,2021-01-07 21:32:38,-15.7667,128.7333,77.0,100,29,1.14,scattered clouds
471,Vredendal,ZA,2021-01-07 21:32:38,-31.6683,18.5012,59.61,91,0,4.83,clear sky
472,Jackson,US,2021-01-07 21:32:38,42.4165,-122.8345,45.0,81,40,0.96,haze
473,Guerrero,MX,2021-01-07 21:32:39,17.6667,-100.0,73.18,55,100,1.61,overcast clouds
474,Kashin,RU,2021-01-07 21:32:39,57.3592,37.6081,15.39,97,98,5.37,overcast clouds
475,Beruwala,LK,2021-01-07 21:32:39,6.4788,79.9828,78.35,83,50,3.56,scattered clouds
476,Sakakah,SA,2021-01-07 21:32:39,29.9697,40.2064,48.2,40,0,4.61,clear sky
477,Dudinka,RU,2021-01-07 21:32:40,69.4058,86.1778,-5.01,91,100,18.95,light snow
478,Taltal,CL,2021-01-07 21:30:28,-25.4,-70.4833,69.94,61,22,6.15,few clouds
479,Aksarka,RU,2021-01-07 21:32:40,66.5606,67.7975,-17.48,87,73,14.52,broken clouds
480,Kaitangata,NZ,2021-01-07 21:32:40,-46.2817,169.8464,55.0,64,71,8.01,broken clouds
481,Doka,SD,2021-01-07 21:32:40,13.5167,35.7667,72.48,40,0,10.4,clear sky
482,Grootfontein,NA,2021-01-07 21:32:41,-19.5667,18.1167,71.31,73,100,6.76,moderate rain
483,Causapscal,CA,2021-01-07 21:32:41,48.3542,-67.227,30.0,35,99,14.83,overcast clouds
484,Rafai,CF,2021-01-07 21:32:41,4.95,23.9167,72.16,30,68,2.77,broken clouds
485,Viransehir,TR,2021-01-07 21:32:41,37.2353,39.7631,46.78,54,1,3.51,clear sky
486,Kargil,IN,2021-01-07 21:32:42,34.5667,76.1,3.88,78,100,1.16,overcast clouds
487,Lander,US,2021-01-07 21:32:42,42.833,-108.7307,33.8,55,75,3.44,light snow
488,Almaty,KZ,2021-01-07 21:32:42,43.25,76.95,6.8,78,90,2.24,mist
489,Usinsk,RU,2021-01-07 21:32:42,65.9939,57.5281,-3.93,93,100,2.98,overcast clouds
490,Ancud,CL,2021-01-07 21:29:43,-41.8697,-73.8203,62.6,48,40,9.22,scattered clouds
491,Amga,RU,2021-01-07 21:32:43,60.8953,131.9608,-24.36,85,100,2.06,overcast clouds
492,Beberibe,BR,2021-01-07 21:32:43,-4.1797,-38.1306,82.4,78,0,10.36,clear sky
493,Santa Isabel,BR,2021-01-07 21:32:43,-23.3156,-46.2214,86.0,65,75,14.97,moderate rain
494,Yining,CN,2021-01-07 21:32:43,29.0361,114.5636,26.76,71,75,3.18,broken clouds
495,Teguldet,RU,2021-01-07 21:32:44,57.3064,88.1667,-15.5,83,100,4.76,overcast clouds
496,Wangqing,CN,2021-01-07 21:32:44,43.3218,129.7634,-12.62,72,18,7.7,few clouds
497,Hamilton,US,2021-01-07 21:29:42,39.1834,-84.5333,37.99,60,90,13.8,overcast clouds
498,Andilamena,MG,2021-01-07 21:32:45,-17.0167,48.5833,66.49,92,81,3.62,broken clouds
499,Okhotsk,RU,2021-01-07 21:32:45,59.3833,143.3,-21.48,78,45,11.59,scattered clouds
500,Hami,CN,2021-01-07 21:32:45,42.8,93.45,6.73,65,10,1.34,clear sky
501,Paraopeba,BR,2021-01-07 21:32:45,-19.2757,-44.4033,71.6,83,75,18.41,heavy intensity rain
502,Qaqortoq,GL,2021-01-07 21:32:46,60.7167,-46.0333,37.4,87,90,3.44,moderate rain
503,Dauphin,CA,2021-01-07 21:32:46,51.1494,-100.0502,32.95,95,100,5.53,snow
504,Taganak,PH,2021-01-07 21:32:46,6.0833,118.3,75.2,100,20,3.44,few clouds
505,Angoche,MZ,2021-01-07 21:32:46,-16.2325,39.9086,80.49,86,98,7.49,overcast clouds
506,San Vicente,AR,2021-01-07 21:32:46,-26.6167,-54.1333,69.66,100,95,2.86,light rain
507,Shingu,JP,2021-01-07 21:30:23,33.7333,135.9833,29.57,88,31,14.36,scattered clouds
508,Stornoway,GB,2021-01-07 21:32:47,58.2093,-6.3865,33.8,75,75,10.36,broken clouds
509,Jalingo,NG,2021-01-07 21:31:18,8.8833,11.3667,78.42,16,76,3.44,broken clouds
510,Northam,GB,2021-01-07 21:32:47,51.0333,-4.2167,37.99,88,100,3.0,light rain
511,Riberalta,BO,2021-01-07 21:32:48,-10.9833,-66.1,76.96,84,74,4.36,broken clouds
512,Ixtapa,MX,2021-01-07 21:32:30,20.7,-105.2,73.4,83,90,8.05,overcast clouds
513,Arman,RU,2021-01-07 21:32:48,59.7,150.1667,-6.48,80,36,5.55,scattered clouds
514,Shenjiamen,CN,2021-01-07 21:32:48,29.9576,122.298,26.17,87,99,26.26,overcast clouds
515,Wawa,NG,2021-01-07 21:32:49,9.9022,4.4192,79.66,18,36,1.77,scattered clouds
516,Jalu,LY,2021-01-07 21:32:49,29.0331,21.5482,56.53,58,84,3.69,broken clouds
517,Saint-Pierre,RE,2021-01-07 21:32:49,-21.3393,55.4781,77.0,73,0,5.75,clear sky
518,Marsh Harbour,BS,2021-01-07 21:32:50,26.5412,-77.0636,71.62,55,98,9.69,overcast clouds
519,High Level,CA,2021-01-07 21:32:50,58.5169,-117.136,24.8,80,20,3.44,few clouds
520,Wolsztyn,PL,2021-01-07 21:32:50,52.1155,16.1171,34.0,86,75,8.05,light snow
521,Gravelbourg,CA,2021-01-07 21:32:50,49.8834,-106.5512,32.0,74,100,5.75,overcast clouds
522,Mata,PT,2021-01-07 21:32:50,40.683,-7.4592,36.0,69,64,7.0,broken clouds
523,Talara,PE,2021-01-07 21:30:12,-4.5772,-81.2719,82.4,65,0,24.16,clear sky
524,Araouane,ML,2021-01-07 21:32:51,18.9048,-3.5265,77.16,18,47,8.66,scattered clouds
525,Narasannapeta,IN,2021-01-07 21:32:51,18.4167,84.05,66.97,85,3,3.85,clear sky
526,Kirkwood,US,2021-01-07 21:32:51,38.5834,-90.4068,37.99,70,90,11.5,overcast clouds
527,Linjiang,CN,2021-01-07 21:32:51,41.8069,126.9078,-12.35,73,50,3.04,scattered clouds
528,Nhulunbuy,AU,2021-01-07 21:32:52,-12.2333,136.7667,78.8,94,63,6.53,broken clouds
529,Uvarovka,RU,2021-01-07 21:32:52,55.5278,35.6061,19.49,98,95,5.77,overcast clouds
530,Laguna,US,2021-01-07 21:32:52,38.421,-121.4238,54.0,76,1,4.61,clear sky
531,Alta Floresta,BR,2021-01-07 21:32:52,-9.8756,-56.0861,91.4,55,40,2.3,scattered clouds
532,Nelson Bay,AU,2021-01-07 21:32:53,-32.7167,152.15,68.0,77,90,13.8,overcast clouds
533,Sorong,ID,2021-01-07 21:32:53,-0.8833,131.25,80.65,80,83,6.33,broken clouds
534,Kahului,US,2021-01-07 21:31:41,20.8947,-156.47,78.8,61,40,12.66,scattered clouds
535,Macas,EC,2021-01-07 21:32:53,-2.3167,-78.1167,75.2,64,40,3.44,light rain
536,Skjern,DK,2021-01-07 21:32:53,55.95,8.5,34.0,78,100,6.6,overcast clouds
537,Steinau,DE,2021-01-07 21:32:54,53.6833,8.8833,33.8,100,90,5.75,mist
538,Erzin,TR,2021-01-07 21:30:03,36.9559,36.2,57.99,57,100,4.0,overcast clouds
539,Punta Alta,AR,2021-01-07 21:32:54,-38.8759,-62.0736,71.26,67,7,19.15,light rain
540,Jinchang,CN,2021-01-07 21:32:54,38.4953,102.1739,5.79,65,0,2.06,clear sky
541,Viedma,AR,2021-01-07 21:32:54,-40.8135,-62.9967,70.0,42,27,5.99,scattered clouds
542,Shache,CN,2021-01-07 21:32:55,38.4167,77.2406,15.03,94,99,4.72,overcast clouds
543,Rawson,AR,2021-01-07 21:32:55,-43.3002,-65.1023,62.98,49,0,19.48,clear sky
544,Birao,CF,2021-01-07 21:32:55,10.2849,22.7882,71.38,22,38,6.69,scattered clouds
545,Lianran,CN,2021-01-07 21:32:55,24.9227,102.485,41.0,100,90,15.66,overcast clouds
546,Vangaindrano,MG,2021-01-07 21:32:56,-23.35,47.6,75.78,91,85,6.91,light rain
547,Goderich,CA,2021-01-07 21:32:56,43.7501,-81.7165,32.0,74,97,11.5,overcast clouds
548,Manggar,ID,2021-01-07 21:32:56,-2.8833,108.2667,79.68,85,100,9.15,overcast clouds
549,Bella Union,UY,2021-01-07 21:32:56,-30.2752,-57.6007,89.62,20,0,3.49,clear sky
550,Saint-Augustin,CA,2021-01-07 21:32:57,51.226,-58.6502,38.23,82,100,22.82,light rain
551,Sainte-Anne-Des-Monts,CA,2021-01-07 21:32:57,49.124,-66.4924,28.4,74,100,25.32,light snow
552,Acarau,BR,2021-01-07 21:32:57,-2.8856,-40.12,80.76,77,4,15.1,clear sky
553,Muros,ES,2021-01-07 21:32:57,42.7762,-9.0603,39.99,93,1,1.99,clear sky
554,Elizabeth City,US,2021-01-07 21:32:57,36.2946,-76.2511,45.0,61,1,8.05,clear sky
555,Nouadhibou,MR,2021-01-07 21:32:58,20.931,-17.0347,68.0,94,0,4.61,clear sky
556,Vokhtoga,RU,2021-01-07 21:32:58,58.8147,41.0461,7.23,95,100,3.06,light snow
557,Basco,PH,2021-01-07 21:32:58,20.4487,121.9702,69.44,84,93,35.93,overcast clouds
558,Nanning,CN,2021-01-07 21:32:58,22.8167,108.3167,39.2,93,90,8.95,overcast clouds
559,Fukue,JP,2021-01-07 21:31:16,32.6881,128.8419,35.44,89,100,25.12,overcast clouds
560,Majdanpek,RS,2021-01-07 21:32:59,44.4277,21.946,39.0,6,100,2.04,light rain
561,Ternate,ID,2021-01-07 21:32:59,0.8,127.4,79.18,81,100,5.99,overcast clouds
562,Dumai,ID,2021-01-07 21:32:59,1.6833,101.45,75.56,88,98,3.67,overcast clouds
563,Souillac,MU,2021-01-07 21:33:00,-20.5167,57.5167,77.0,73,40,8.05,scattered clouds
564,Sabha,LY,2021-01-07 21:33:00,27.0377,14.4283,62.6,32,86,5.66,overcast clouds
565,Navirai,BR,2021-01-07 21:33:00,-23.065,-54.1906,74.21,86,94,2.84,light rain
566,Taranagar,IN,2021-01-07 21:33:00,28.6709,75.0351,56.57,53,0,3.06,clear sky
567,Sangmelima,CM,2021-01-07 21:33:00,2.9333,11.9833,70.83,86,72,3.87,broken clouds
568,Sur,OM,2021-01-07 21:33:01,22.5667,59.5289,66.52,43,0,19.46,clear sky
569,Chernyshevskiy,RU,2021-01-07 21:33:01,63.0128,112.4714,8.83,96,100,8.66,overcast clouds
570,Rosarito,MX,2021-01-07 21:33:01,32.3333,-117.0333,75.2,25,75,4.61,broken clouds
571,Tucurui,BR,2021-01-07 21:33:01,-3.7661,-49.6725,81.07,73,7,1.72,light rain
572,Sri Aman,MY,2021-01-07 21:33:01,1.2376,111.4621,75.2,94,100,2.3,moderate rain
573,Hailey,US,2021-01-07 21:33:02,43.5196,-114.3153,35.01,75,20,1.16,few clouds
574,Parana,AR,2021-01-07 21:33:02,-31.732,-60.5238,96.01,10,0,5.95,clear sky
575,Koumac,NC,2021-01-07 21:33:02,-20.5667,164.2833,85.62,69,57,1.25,broken clouds
576,Solton,RU,2021-01-07 21:33:02,52.8429,86.4787,-14.13,88,21,0.83,few clouds
577,Churintzio,MX,2021-01-07 21:33:03,20.15,-102.0667,73.44,25,96,5.75,overcast clouds
578,Xuddur,SO,2021-01-07 21:33:03,4.1213,43.8894,71.06,38,3,13.22,clear sky
579,Churu,IN,2021-01-07 21:33:03,28.3,74.95,56.05,57,0,4.68,clear sky
580,Sibolga,ID,2021-01-07 21:33:03,1.7427,98.7792,76.96,82,100,3.53,overcast clouds
581,Hengyang,CN,2021-01-07 21:33:04,26.8881,112.615,28.89,83,99,6.6,overcast clouds
582,Sambava,MG,2021-01-07 21:33:04,-14.2667,50.1667,76.44,86,6,6.06,light rain
583,Byron Bay,AU,2021-01-07 21:31:51,-28.65,153.6167,73.4,73,90,14.97,light rain
584,Mukhen,RU,2021-01-07 21:33:04,48.1,136.1,-16.33,86,95,4.45,overcast clouds
585,Westport,US,2021-01-07 21:29:29,41.1415,-73.3579,37.99,48,1,17.27,clear sky
586,Aschersleben,DE,2021-01-07 21:33:05,51.75,11.4667,35.01,90,89,6.64,overcast clouds
587,Acapulco,MX,2021-01-07 21:33:05,16.8634,-99.8901,82.4,78,75,8.05,broken clouds
588,Vanimo,PG,2021-01-07 21:33:05,-2.6741,141.3028,79.81,84,99,3.67,light rain
589,Marzuq,YE,2021-01-07 21:33:06,14.4,46.4667,52.79,43,0,3.06,clear sky
590,Werda,BW,2021-01-07 21:33:06,-25.2667,23.2833,75.09,64,91,12.06,overcast clouds
591,Porto Belo,BR,2021-01-07 21:33:06,-27.1578,-48.5531,75.2,94,75,5.75,moderate rain
592,Foam Lake,CA,2021-01-07 21:33:06,51.65,-103.5343,30.2,69,100,2.3,overcast clouds
593,Qasigiannguit,GL,2021-01-07 21:33:07,68.8193,-51.1922,12.2,92,75,4.61,light snow
594,Dingle,PH,2021-01-07 21:33:07,10.9995,122.6711,75.58,93,100,8.59,heavy intensity rain
595,Sao Jose Da Coroa Grande,BR,2021-01-07 21:33:07,-8.8978,-35.1478,78.89,78,27,11.56,scattered clouds
596,Maceio,BR,2021-01-07 21:33:07,-9.6658,-35.7353,78.8,78,20,6.91,few clouds
597,Novosheshminsk,RU,2021-01-07 21:33:07,55.0651,51.2338,18.46,96,99,13.13,light snow
598,Catamarca,AR,2021-01-07 21:33:08,-28.4696,-65.7852,86.0,53,12,7.0,few clouds
599,Buhe,CN,2021-01-07 21:33:08,30.2876,112.2298,25.0,62,20,2.04,few clouds
600,Te Anau,NZ,2021-01-07 21:33:08,-45.4167,167.7167,54.01,73,74,2.33,broken clouds
601,Tawang,IN,2021-01-07 21:33:08,27.5833,91.8667,33.55,83,10,3.33,clear sky
602,Manaure,CO,2021-01-07 21:33:08,11.7751,-72.4445,84.25,63,63,13.29,broken clouds
603,Coralville,US,2021-01-07 21:33:09,41.6764,-91.5805,34.0,75,90,8.05,overcast clouds
604,Trail,CA,2021-01-07 21:30:27,49.0998,-117.7022,37.0,99,77,0.6,broken clouds
605,Gravdal,NO,2021-01-07 21:33:09,68.1214,13.5031,32.0,64,75,10.36,light snow
606,Merauke,ID,2021-01-07 21:33:10,-8.4667,140.3333,77.36,92,100,14.99,moderate rain
607,Mount Isa,AU,2021-01-07 21:30:46,-20.7333,139.5,80.6,24,1,14.97,clear sky
608,Bontang,ID,2021-01-07 21:30:04,0.1333,117.5,73.58,91,100,6.24,overcast clouds
609,Ornskoldsvik,SE,2021-01-07 21:33:10,63.2909,18.7153,21.2,100,90,3.44,overcast clouds
610,Ejido,VE,2021-01-07 21:33:10,8.5514,-71.2375,70.86,65,80,1.92,light rain
611,San Alberto,CO,2021-01-07 21:33:11,7.7611,-73.3922,84.56,64,88,1.59,light rain
612,Waldoboro,US,2021-01-07 21:33:11,44.0954,-69.3756,35.6,51,1,8.05,clear sky
613,Alikovo,RU,2021-01-07 21:33:11,55.7383,46.7549,12.2,85,75,8.95,snow
614,Gemena,CD,2021-01-07 21:33:11,3.25,19.7667,75.72,43,49,2.71,scattered clouds
615,Sorland,NO,2021-01-07 21:33:11,67.667,12.6934,32.0,64,75,10.36,light snow
616,Saint-Francois,FR,2021-01-07 21:33:12,46.4154,3.9054,33.01,93,90,2.3,mist
617,Treinta Y Tres,UY,2021-01-07 21:33:12,-33.2333,-54.3833,82.47,37,38,9.89,scattered clouds
618,Zwedru,LR,2021-01-07 21:33:12,6.0667,-8.1281,75.81,83,37,4.59,scattered clouds
619,Mutis,CO,2021-01-07 21:33:12,6.2262,-77.4044,78.85,78,94,3.36,light rain
620,Oudtshoorn,ZA,2021-01-07 21:33:12,-33.5907,22.2014,68.0,94,75,9.22,broken clouds
621,Awjilah,LY,2021-01-07 21:33:13,29.1081,21.2869,56.8,65,92,3.85,overcast clouds
622,Quepos,CR,2021-01-07 21:33:13,9.4236,-84.1652,77.0,64,75,9.22,broken clouds
623,Turangi,NZ,2021-01-07 21:33:13,-39.0,175.9333,60.12,88,97,3.53,overcast clouds
624,Ambovombe,MG,2021-01-07 21:33:14,-25.1667,46.0833,74.52,91,7,5.28,clear sky
625,Abnub,EG,2021-01-07 21:33:14,27.2696,31.1511,60.8,72,0,6.91,clear sky
626,Ourinhos,BR,2021-01-07 21:33:14,-22.9789,-49.8706,75.0,88,100,5.61,heavy intensity rain
627,Hasaki,JP,2021-01-07 21:33:14,35.7333,140.8333,28.4,59,75,3.44,broken clouds
628,Tarrafal,CV,2021-01-07 21:33:15,15.2833,-23.7667,75.2,69,0,11.5,clear sky
629,Mabaruma,GY,2021-01-07 21:33:15,8.2,-59.7833,77.38,87,100,4.97,light rain
630,Nizhniy Kuranakh,RU,2021-01-07 21:33:15,58.8353,125.4869,-12.32,87,100,7.18,overcast clouds
631,Tura,IN,2021-01-07 21:33:15,25.5198,90.2201,62.26,67,5,3.04,clear sky
632,Agua Prieta,MX,2021-01-07 21:33:15,31.3,-109.5667,68.0,10,0,8.99,clear sky
633,Manbij,SY,2021-01-07 21:33:16,36.5281,37.9549,39.2,75,0,4.88,clear sky
634,Hinganghat,IN,2021-01-07 21:33:16,20.5667,78.8333,73.4,68,75,5.46,haze
635,Tuatapere,NZ,2021-01-07 21:33:16,-46.1333,167.6833,57.0,74,74,1.99,broken clouds
636,Azle,US,2021-01-07 21:29:56,32.8951,-97.5459,52.0,54,90,13.8,overcast clouds
637,Kilindoni,TZ,2021-01-07 21:33:17,-7.9139,39.6668,81.07,79,19,13.13,few clouds
638,Banjar,ID,2021-01-07 21:33:17,-8.19,114.9675,77.0,94,75,11.5,broken clouds
639,Khash,IR,2021-01-07 21:28:24,28.2211,61.2158,26.64,68,0,5.35,clear sky
640,Carutapera,BR,2021-01-07 21:33:17,-1.195,-46.02,80.46,79,8,8.48,clear sky
641,Mizan Teferi,ET,2021-01-07 21:33:17,6.9833,35.5833,65.34,71,28,1.95,scattered clouds
642,Lima,PE,2021-01-07 21:29:37,-12.0432,-77.0282,73.99,78,0,9.22,moderate rain
643,Kisangani,CD,2021-01-07 21:33:18,0.5167,25.2,75.09,78,11,3.18,few clouds
644,Port Hawkesbury,CA,2021-01-07 21:33:18,45.6169,-61.3485,36.0,93,90,23.02,light rain
645,Inuvik,CA,2021-01-07 21:33:19,68.3499,-133.7218,-2.2,84,24,10.69,few clouds
646,Touros,BR,2021-01-07 21:33:19,-5.1989,-35.4608,80.6,74,20,11.5,few clouds
647,Abalak,RU,2021-01-07 21:33:19,58.1286,68.5944,-8.23,91,100,7.78,overcast clouds
648,Quixada,BR,2021-01-07 21:33:19,-4.9714,-39.0153,83.5,53,15,11.25,few clouds
649,Waitara,NZ,2021-01-07 21:33:20,-38.925,174.25,66.99,87,30,5.99,scattered clouds
650,Jibuti,DJ,2021-01-07 21:33:20,11.5,42.5,73.4,73,20,3.44,few clouds
651,Portel,BR,2021-01-07 21:33:20,-1.9356,-50.8211,79.93,75,54,3.09,broken clouds
652,Mingaora,PK,2021-01-07 21:33:21,34.7758,72.3625,44.37,55,80,3.44,broken clouds
653,Ondjiva,AO,2021-01-07 21:33:21,-17.0667,15.7333,70.68,82,100,4.18,light rain
654,Port-Cartier,CA,2021-01-07 21:33:21,50.0334,-66.8654,26.6,63,100,13.8,overcast clouds
655,Epiniana,GR,2021-01-07 21:33:21,39.1429,21.6134,52.0,92,100,6.67,overcast clouds
656,Florence,IT,2021-01-07 21:31:37,43.7667,11.25,42.01,100,100,2.3,overcast clouds
657,Uray,RU,2021-01-07 21:33:22,60.1247,64.7758,-1.59,93,100,7.67,light snow
658,Nyaunglebin,MM,2021-01-07 21:33:22,17.95,96.7333,71.4,78,99,3.31,overcast clouds
659,Rocky Mountain House,CA,2021-01-07 21:33:22,52.3668,-114.9188,30.2,47,0,2.3,clear sky
660,Norman,US,2021-01-07 21:31:06,35.2226,-97.4395,42.01,81,90,12.66,overcast clouds
661,Siyabuswa,ZA,2021-01-07 21:33:23,-25.1132,29.0445,71.62,67,80,11.01,broken clouds
662,Ocos,GT,2021-01-07 21:33:23,14.5094,-92.1933,87.8,58,20,12.66,few clouds
663,Sredneuralsk,RU,2021-01-07 21:33:23,56.9892,60.4666,-2.2,84,20,6.71,few clouds
664,Pangai,TO,2021-01-07 21:33:23,-19.8,-174.35,82.4,83,75,8.05,broken clouds
665,Elliot Lake,CA,2021-01-07 21:33:24,46.3834,-82.6331,26.6,63,1,4.61,clear sky
666,Houston,US,2021-01-07 21:32:04,29.7633,-95.3633,60.01,54,20,16.11,few clouds
667,Key West,US,2021-01-07 21:33:24,24.5557,-81.7826,75.2,73,40,10.36,scattered clouds
668,Marawi,PH,2021-01-07 21:33:24,7.9986,124.2928,73.99,93,100,4.0,overcast clouds
669,Mezhdurechensk,RU,2021-01-07 21:33:25,53.6942,88.0603,-2.11,88,100,2.82,overcast clouds
670,Chotebor,CZ,2021-01-07 21:33:25,49.7207,15.6702,32.0,86,90,8.05,overcast clouds
671,Banda Aceh,ID,2021-01-07 21:30:07,5.5577,95.3222,78.15,80,99,11.77,overcast clouds
672,Cerrito,CO,2021-01-07 21:33:26,6.8432,-72.694,73.4,73,75,8.05,broken clouds
673,Lar,IN,2021-01-07 21:33:26,26.2039,83.9717,60.39,76,0,6.49,clear sky
674,Atambua,ID,2021-01-07 21:33:26,-9.1061,124.8925,75.15,87,100,2.71,overcast clouds
675,Yumen,CN,2021-01-07 21:33:26,40.2833,97.2,2.08,74,0,11.52,clear sky
676,Betare Oya,CM,2021-01-07 21:33:27,5.6,14.0833,71.31,22,90,5.88,overcast clouds
677,Porto Torres,IT,2021-01-07 21:33:27,40.835,8.3972,44.6,87,40,6.91,scattered clouds
678,Saldanha,ZA,2021-01-07 21:33:27,-33.0117,17.9442,64.4,77,0,9.22,clear sky
679,Pudozh,RU,2021-01-07 21:33:27,61.8099,36.5345,-1.88,92,18,4.36,few clouds
680,Qusar,AZ,2021-01-07 21:33:27,41.4273,48.4289,39.97,60,13,4.45,few clouds
681,Shu,KZ,2021-01-07 21:33:28,43.5983,73.7614,8.08,94,100,6.71,overcast clouds
682,Wajima,JP,2021-01-07 21:33:28,37.4,136.9,28.72,95,100,15.64,light snow
683,Ngerengere,TZ,2021-01-07 21:33:29,-6.75,38.1167,73.33,93,43,1.83,scattered clouds
684,Kurilsk,RU,2021-01-07 21:33:29,45.2333,147.8833,22.37,94,100,29.37,snow
685,Hokitika,NZ,2021-01-07 21:33:29,-42.7167,170.9667,65.52,75,97,2.71,overcast clouds
686,Prince Rupert,CA,2021-01-07 21:33:29,54.3161,-130.3201,42.8,87,90,12.66,light rain
687,Janow Lubelski,PL,2021-01-07 21:33:29,50.707,22.4104,30.99,94,31,6.38,scattered clouds
688,Locri,IT,2021-01-07 21:33:30,38.2414,16.2623,62.6,63,0,11.5,clear sky
689,Perbaungan,ID,2021-01-07 21:33:30,3.5679,98.956,75.2,100,40,3.44,scattered clouds
